[{"_id":"56c66be5a73e4927415071a3","name":"ARLINGTON","phone_number":"(703) 812-8550","hours":["Sun","Mon 9 AM - 5 PM","Tue 9 AM - 5 PM","Wed 9 AM - 5 PM","Thu 9 AM - 5 PM","Fri 9 AM - 6 PM","Sat 9 AM - 1 PM"],"notes":["Safe Deposit Box","Branch Drive-Up","ATM Available","Open on Saturday"],"address":{"street_number":"4700","state":"VA","street_name":"Lee Highway","zip":"22207","city":"Arlington"},"geocode":{"lng":-77.1211338,"lat":38.8981779}},{"_id":"56c66be5a73e4927415071a4","name":"LEE HIGHWAY/GEORGE MASON","phone_number":"(703) 237-0146","hours":["Sun","Mon 9 AM - 5 PM","Tue 9 AM - 5 PM","Wed 9 AM - 5 PM","Thu 9 AM - 5 PM","Fri 9 AM - 6 PM","Sat 9 AM - 1 PM"],"notes":["Safe Deposit Box","Branch Drive-Up","ATM Available","Open on Saturday"],"address":{"street_number":"5222","state":"VA","street_name":"Lee Highway","zip":"22207","city":"Arlington"},"geocode":{"lng":-77.1333157,"lat":38.8960952}},{"_id":"56c66be5a73e4927415071a5","name":"BALLSTON COMMON MALL","phone_number":"(703) 558-2230","hours":["Sun","Mon 9 AM - 5 PM","Tue 9 AM - 5 PM","Wed 9 AM - 5 PM","Thu 9 AM - 5 PM","Fri 9 AM - 6 PM","Sat 9 AM - 1 PM"],"notes":["Safe Deposit Box","ATM Available","Open on Saturday"],"address":{"street_number":"4100","state":"VA","street_name":"Wilson Boulevard, 1st Floor","zip":"22203","city":"Arlington"},"geocode":{"lng":-77.109526,"lat":38.879446}}]