{"data":[{"_id":"57cf75cea73e494d8675ec49","name":"Best Productions","category":["Entertainment"],"geocode":{"lat":33,"lng":-1},"address":{"street_number":"5901","street_name":"Lafayette St.","city":"Brooklyn","state":"NY","zip":"07009"}},{"_id":"57cf75cea73e494d8675ec4a","name":"Pastimes Antiques","category":["furniture_store","home_goods_store","store","point_of_interest","establishment"],"geocode":{"lat":42.44091900000001,"lng":-76.4985975},"address":{"zip":"14850","city":"Ithaca","street number":"215","state":"NY","street name":"North Cayuga Street"}},{"_id":"57cf75cea73e494d8675ec4b","name":"Ithaca Farmers' Market","category":["food","point_of_interest","establishment"],"geocode":{"lat":42.4508216,"lng":-76.5094639},"address":{"zip":"14851","city":"Ithaca","street number":"545","state":"NY","street name":"3rd Street"}},{"_id":"57cf75cea73e494d8675ec4c","name":"Taughannock Farms Inn","category":["lodging","restaurant","food","point_of_interest","establishment"],"geocode":{"lat":42.54457119999999,"lng":-76.5983802},"address":{"zip":"14886","city":"Trumansburg","street number":"2030","state":"NY","street name":"Gorge Road"}},{"_id":"57cf75cea73e494d8675ec4d","name":"Ithaca Bakery","category":["cafe","bakery","meal_takeaway","restaurant","food","store","point_of_interest","establishment"],"geocode":{"lat":42.44261090000001,"lng":-76.5086618},"address":{"zip":"14850","city":"Ithaca","street number":"400","state":"NY","street name":"North Meadow Street"}},{"_id":"57cf75cea73e494d8675ec4e","name":"Aurora Inn","category":["bar","lodging","health","restaurant","food","point_of_interest","establishment"],"geocode":{"lat":42.75448799999999,"lng":-76.7032},"address":{"zip":"13026","city":"Aurora","street number":"391","state":"NY","street name":"Main Street"}},{"_id":"57cf75cea73e494d8675ec4f","name":"Zimet Musical Services","category":["store","point_of_interest","establishment"],"geocode":{"lat":42.4497493,"lng":-76.50136429999999},"address":{"zip":"14850","city":"Ithaca","street number":"104","state":"NY","street name":"Adams Street"}},{"_id":"57cf75cea73e494d8675ec50","name":"Terra Rosa","category":["lodging","clothing_store","store","point_of_interest","establishment"],"geocode":{"lat":42.47999799999999,"lng":-76.48118199999999},"address":{"zip":"14850","city":"Ithaca","street number":"2255","state":"NY","street name":"North Triphammer Road"}},{"_id":"57cf75cea73e494d8675ec51","name":"shworldofgifts","category":["store","point_of_interest","establishment"],"geocode":{"lat":42.6011813,"lng":-76.1804843},"address":{"zip":"13045","city":"Cortland","state":"NY"}},{"_id":"57cf75cea73e494d8675ec52","name":"Dollar Tree","category":["food","home_goods_store","store","point_of_interest","establishment"],"geocode":{"lat":42.429088,"lng":-76.51341959999999},"address":{"zip":"14850","city":"Ithaca","street number":"131","state":"NY","street name":"Fairgrounds Memorial Parkway"}},{"_id":"57cf75cea73e494d8675ec53","name":"AT&T","category":["electronics_store","store","point_of_interest","establishment"],"geocode":{"lat":42.42904199999999,"lng":-76.508494},"address":{"zip":"14850","city":"Ithaca","street number":"748","state":"NY","street name":"South Meadow Street"}},{"_id":"57cf75cea73e494d8675ec54","name":"Six Mile Creek Vineyard","category":["food","point_of_interest","establishment"],"geocode":{"lat":42.4177286,"lng":-76.4545649},"address":{"zip":"14850","city":"Ithaca","street number":"1551","state":"NY","street name":"Slaterville Road"}},{"_id":"57cf75cea73e494d8675ec55","name":"Saigon Kitchen","category":["restaurant","food","point_of_interest","establishment"],"geocode":{"lat":42.4394625,"lng":-76.5074715},"address":{"zip":"14850","city":"Ithaca","street number":"526","state":"NY","street name":"West State Street"}},{"_id":"57cf75cea73e494d8675ec56","name":"Ithaca Coffee Company","category":["cafe","bar","grocery_or_supermarket","food","store","point_of_interest","establishment"],"geocode":{"lat":42.4796995,"lng":-76.4818799},"address":{"zip":"14850","city":"Ithaca","street number":"2255","state":"NY","street name":"North Triphammer Road"}},{"_id":"57cf75cea73e494d8675ec57","name":"Triphammer Wines & Spirits","category":["bar","liquor_store","food","store","point_of_interest","establishment"],"geocode":{"lat":42.479442,"lng":-76.481917},"address":{"zip":"14850","city":"Ithaca","street number":"2255","state":"NY","street name":"North Triphammer Road"}},{"_id":"57cf75cea73e494d8675ec58","name":"The Bookery","category":["book_store","store","point_of_interest","establishment"],"geocode":{"lat":42.441055,"lng":-76.49871499999999},"address":{"zip":"14850","city":"Ithaca","street number":"215","state":"NY","street name":"North Cayuga Street"}},{"_id":"57cf75cea73e494d8675ec59","name":"Unique eCigs - Ithaca, NY","category":["store","point_of_interest","establishment"],"geocode":{"lat":42.43713899999999,"lng":-76.509185},"address":{"zip":"14850","city":"Ithaca","street number":"222","state":"NY","street name":"South Fulton Street"}},{"_id":"57cf75cea73e494d8675ec5a","name":"AT&T Authorized Retailer","category":["electronics_store","store","point_of_interest","establishment"],"geocode":{"lat":42.483327,"lng":-76.490933},"address":{"zip":"14850","city":"Ithaca","street number":"40","state":"NY","street name":"Catherwood Road"}},{"_id":"57cf75cea73e494d8675ec5b","name":"Buffalo Wild Wings","category":["meal_takeaway","bar","restaurant","food","point_of_interest","establishment"],"geocode":{"lat":42.4204429,"lng":-76.5214759},"address":{"zip":"14850","city":"Ithaca","street number":"410","state":"NY","street name":"Elmira Road"}},{"_id":"57cf75cea73e494d8675ec5c","name":"Dockers","category":["clothing_store","store","point_of_interest","establishment"],"geocode":{"lat":42.483327,"lng":-76.490933},"address":{"zip":"14850","city":"Ithaca","street number":"40","state":"NY","street name":"Catherwood Road"}}],"paging":{"next":"/merchants?key=12345&page=2"}}